City_ID,City,Lat,Lng,Max Temp,Humidity,Cloudiness,Wind Speed,Country,Date
0,adamstown,-25.066,-130.1015,20.650000000000034,87,100,10.89,PN,1696121338
1,san patricio,28.017,-97.5169,30.05000000000001,67,0,5.9,US,1696121339
2,college,64.8569,-147.8028,10.600000000000023,46,40,3.6,US,1696121339
3,ushuaia,-54.8,-68.3,5.810000000000002,70,75,10.8,AR,1696121179
4,manokwari,-0.8667,134.0833,27.400000000000034,75,98,1.0,ID,1696121340
5,la'ie,21.6477,-157.9253,30.980000000000018,69,3,3.58,US,1696121340
6,atafu village,-8.5421,-172.5159,28.82000000000005,67,55,2.9,TK,1696121340
7,akureyri,65.6835,-18.0878,2.9600000000000364,100,20,0.51,IS,1696121340
8,kyzyl,51.7,94.45,9.510000000000048,53,100,0.32,RU,1696121341
9,port-gentil,-0.7193,8.7815,25.430000000000007,88,98,7.54,GA,1696121341
10,la passe,45.5549,-0.8967,18.129999999999995,76,63,3.57,FR,1696121342
11,wailua homesteads,22.0669,-159.378,30.24000000000001,75,100,6.69,US,1696121342
12,edinburgh of the seven seas,-37.0676,-12.3116,10.510000000000048,70,100,16.41,SH,1696121342
13,isafjordur,66.0755,-23.124,5.6200000000000045,90,100,3.78,IS,1696121343
14,yellowknife,62.456,-114.3525,8.29000000000002,86,75,3.09,CA,1696121176
15,saipan,15.1355,145.701,28.390000000000043,83,75,4.12,MP,1696121343
16,port-aux-francais,-49.35,70.2167,5.78000000000003,96,100,16.09,TF,1696121343
17,okha,53.5739,142.9478,10.5,86,95,4.03,RU,1696121344
18,mount isa,-20.7333,139.5,29.870000000000005,28,1,4.63,AU,1696121344
19,puerto ayora,-0.7393,-90.3518,23.640000000000043,92,100,3.13,EC,1696121344
20,abalak,58.1286,68.5944,2.4600000000000364,73,65,1.64,RU,1696121345
21,djambala,-2.5447,14.7533,20.5,91,74,1.22,CG,1696121345
22,touros,-5.1989,-35.4608,25.140000000000043,76,34,6.63,BR,1696121345
23,bredasdorp,-34.5322,20.0403,12.060000000000002,65,74,0.67,ZA,1696121346
24,bethel,41.3712,-73.414,16.680000000000007,88,40,0.0,US,1696121278
25,hawaiian paradise park,19.5933,-154.9731,28.730000000000018,75,0,3.09,US,1696121284
26,iqaluit,63.7506,-68.5145,1.8500000000000227,93,100,4.63,CA,1696121346
27,dudinka,69.4058,86.1778,-10.479999999999961,92,14,3.54,RU,1696121347
28,colares,38.7992,-9.4469,25.360000000000014,59,51,5.81,PT,1696121347
29,banket,-17.3833,30.4,20.680000000000007,51,70,1.97,ZW,1696121347
30,tubarjal,30.4999,38.216,23.980000000000018,41,0,3.67,SA,1696121348
31,reitz,-27.8014,28.4273,11.439999999999998,22,0,3.24,ZA,1696121348
32,balaipungut,1.05,101.2833,27.650000000000034,65,95,0.93,ID,1696121348
33,isla mujeres,21.2311,-86.731,29.03000000000003,85,94,3.8,MX,1696121349
34,albany,42.6001,-73.9662,16.0,93,0,1.11,US,1696121218
35,chonchi,-42.6128,-73.8092,8.400000000000034,89,100,0.96,CL,1696121349
36,ust-nera,64.5667,143.2,1.0500000000000114,49,22,3.12,RU,1696121349
37,anadyr,64.75,177.4833,2.2800000000000296,64,20,4.92,RU,1696121350
38,tiksi,71.6872,128.8694,-3.2099999999999795,82,94,2.92,RU,1696121350
39,avarua,-21.2078,-159.775,27.03000000000003,83,20,5.14,CK,1696121350
40,tayshet,55.9342,98.0044,2.140000000000043,91,100,5.22,RU,1696121351
41,papatowai,-46.5619,169.4708,13.090000000000032,65,100,4.8,NZ,1696121351
42,west island,-12.1568,96.8225,25.99000000000001,73,75,6.17,CC,1696121351
43,new norfolk,-42.7826,147.0587,16.07000000000005,64,33,6.39,AU,1696121352
44,flying fish cove,-10.4217,105.6791,25.82000000000005,78,75,5.14,CX,1696121352
45,taft,31.7471,54.2088,14.970000000000027,25,0,1.03,IR,1696121352
46,grytviken,-54.2811,-36.5092,2.0600000000000023,79,15,4.79,GS,1696121353
47,kodiak,57.79,-152.4072,9.730000000000018,93,100,4.12,US,1696121353
48,vilyuchinsk,52.9306,158.4028,11.150000000000034,55,98,1.0,RU,1696121353
49,papao,-17.75,-149.55,29.82000000000005,83,14,9.92,PF,1696121354
50,geraldton,-28.7667,114.6,19.230000000000018,72,75,2.57,AU,1696121354
51,alofi,-19.0595,-169.9187,23.939999999999998,83,100,6.17,NU,1696121354
52,eydhafushi,5.1033,73.0708,27.99000000000001,75,100,6.18,MV,1696121355
53,bage,-31.3314,-54.1069,10.879999999999995,87,40,0.51,BR,1696121355
54,cabo san lucas,22.8909,-109.9124,32.610000000000014,68,20,5.66,MX,1696121056
55,vila franca do campo,37.7167,-25.4333,20.49000000000001,99,100,3.87,PT,1696121356
56,askoy,60.4092,5.226,10.53000000000003,100,100,1.03,NO,1696121356
57,sabzevar,36.2126,57.6819,15.770000000000039,29,0,2.41,IR,1696121357
58,wenling,28.3669,121.36,23.430000000000007,82,98,7.13,CN,1696121357
59,hadibu,12.65,54.0333,26.610000000000014,83,99,3.44,YE,1696121357
60,luderitz,-26.6481,15.1594,15.79000000000002,70,0,6.13,NA,1696121357
61,punta arenas,-53.15,-70.9167,6.060000000000002,61,0,12.86,CL,1696121226
62,san antonio de pale,-1.4014,5.6325,24.810000000000002,82,99,5.57,GQ,1696121358
63,codrington,-38.2667,141.9667,15.560000000000002,59,6,9.09,AU,1696121358
64,blackmans bay,-43.0167,147.3167,15.410000000000025,72,64,7.51,AU,1696121359
65,benjamin constant,-4.3831,-70.0311,27.03000000000003,83,0,0.51,BR,1696121359
66,yenotayevka,47.2456,47.0281,13.840000000000032,57,7,4.1,RU,1696121360
67,thompson,55.7435,-97.8558,6.090000000000032,87,75,2.06,CA,1696121361
68,bardai,11.65,7.2333,22.310000000000002,87,100,2.33,NG,1696121361
69,mount pearl,47.5166,-52.7813,10.189999999999998,95,20,1.03,CA,1696121361
70,la rinconada,37.4873,-5.9826,25.03000000000003,45,0,2.06,ES,1696121362
71,ravar,31.2656,56.8055,18.560000000000002,23,4,0.72,IR,1696121362
72,hami,42.8,93.45,18.890000000000043,20,100,2.08,CN,1696121362
73,bilibino,68.0546,166.4372,-4.479999999999961,87,100,2.99,RU,1696121363
74,nuuk,64.1835,-51.7216,1.3400000000000318,80,20,3.09,GL,1696121363
75,baukau,51.5526,7.2042,14.110000000000014,88,100,2.66,DE,1696121363
76,riachao das neves,-11.7461,-44.91,26.5,25,77,1.4,BR,1696121364
77,georgetown,5.4112,100.3354,28.860000000000014,92,20,1.03,MY,1696121364
78,invercargill,-46.4,168.35,14.450000000000045,80,85,6.26,NZ,1696121364
79,waitangi,-43.9535,-176.5597,12.680000000000007,72,13,4.47,NZ,1696121365
80,mogocha,53.7333,119.7667,8.28000000000003,58,13,0.42,RU,1696121365
81,queenstown,-31.8976,26.8753,8.050000000000011,71,37,1.93,ZA,1696121366
82,keflavik,64.0049,-22.5624,9.950000000000045,87,100,9.77,IS,1696121185
83,dartmouth,44.6713,-63.5772,14.75,96,100,3.09,CA,1696121366
84,kingston,17.997,-76.7936,28.53000000000003,91,40,4.63,JM,1696121366
85,badger,64.8,-147.5333,10.550000000000011,45,0,3.6,US,1696121367
86,vernon,50.2581,-119.2691,16.340000000000032,58,98,2.06,CA,1696121112
87,longboat key,27.4125,-82.659,26.77000000000004,62,75,6.17,US,1696121367
88,mazatlan,23.2167,-106.4167,32.98000000000002,70,20,3.6,MX,1696121242
89,margaret river,-33.95,115.0667,15.970000000000027,71,92,8.69,AU,1696121368
90,ribeira grande,38.5167,-28.7,19.32000000000005,83,100,3.58,PT,1696121368
91,selfoss,63.9331,-20.9971,8.910000000000025,81,100,7.96,IS,1696121368
92,port mathurin,-19.6833,63.4167,22.980000000000018,79,23,10.37,MU,1696121369
93,natal,-5.795,-35.2094,26.120000000000005,78,40,5.14,BR,1696121369
94,sinton,28.0367,-97.5092,30.060000000000002,67,0,5.88,US,1696121369
95,kolobrzeg,54.1757,15.5834,15.640000000000043,72,100,7.46,PL,1696121370
96,ebon,4.582,168.6964,29.140000000000043,70,92,3.65,MH,1696121370
97,mikhaylovka,50.06,43.2379,11.5,65,13,2.59,RU,1696121370
98,sabang,5.8933,95.3214,27.379999999999995,77,21,2.18,ID,1696121371
99,pamandzi,-12.7967,45.2794,24.879999999999995,83,0,1.54,YT,1696121371
100,muntok,-2.0667,105.1833,28.100000000000023,65,74,3.94,ID,1696121371
101,gotsucho,35.0,132.2167,23.30000000000001,56,100,6.35,JP,1696121372
102,klyuchi,52.2667,79.1667,8.330000000000041,89,100,2.95,RU,1696121372
103,east london,-33.0153,27.9116,15.140000000000043,63,33,8.11,ZA,1696121372
104,vorgashor,67.5833,63.95,5.03000000000003,98,100,5.69,RU,1696121187
105,sao felix do xingu,-6.6447,-51.995,27.03000000000003,45,85,1.09,BR,1696121373
106,aasiaat,68.7098,-52.8699,-6.71999999999997,84,11,3.74,GL,1696121373
107,puerto natales,-51.7236,-72.4875,3.4700000000000273,79,100,2.95,CL,1696121235
108,rapar,23.5667,70.6333,27.28000000000003,57,73,4.66,IN,1696121374
109,sao jose da coroa grande,-8.8978,-35.1478,23.430000000000007,77,12,3.16,BR,1696121374
110,petropavlovsk-kamchatsky,53.0452,158.6483,10.330000000000041,62,0,1.0,RU,1696121375
111,ilulissat,69.2167,-51.1,-0.9899999999999523,59,6,1.54,GL,1696121375
112,olonkinbyen,70.9221,-8.7187,0.7800000000000296,67,100,2.81,SJ,1696121375
113,jamestown,42.097,-79.2353,17.80000000000001,92,0,4.63,US,1696121376
114,sinabang,2.4803,96.3801,26.960000000000036,82,60,3.25,ID,1696121376
115,taunggyi,20.7833,97.0333,18.120000000000005,94,78,2.13,MM,1696121376
116,peniche,39.3558,-9.3811,22.27000000000004,89,17,1.29,PT,1696121376
117,guerrero negro,27.9769,-114.0611,20.510000000000048,70,0,6.57,MX,1696121377
118,rikaze,29.25,88.8833,11.53000000000003,52,67,1.07,CN,1696121377
119,jesus de otoro,14.4833,-87.9833,26.810000000000002,97,100,0.79,HN,1696121377
120,aripuana,-9.1667,-60.6333,23.640000000000043,95,100,1.14,BR,1696121220
121,acapulco de juarez,16.8634,-99.8901,29.900000000000034,79,75,2.06,MX,1696121371
122,san luis de la loma,17.2706,-100.8939,28.680000000000007,82,98,1.92,MX,1696121378
123,alo,7.4178,6.7371,23.58000000000004,96,99,1.29,NG,1696121379
124,zemio,5.0314,25.1361,21.400000000000034,96,100,1.59,CF,1696121379
125,bikenibeu village,1.3673,173.1241,31.980000000000018,70,40,2.57,KI,1696121379
126,al khaburah,23.9886,57.0984,27.610000000000014,62,0,0.92,OM,1696121379
127,stanley,54.868,-1.6985,12.100000000000023,93,75,2.06,GB,1696121380
128,santiago del estero,-27.7951,-64.2615,20.060000000000002,40,13,2.26,AR,1696121380
129,port elizabeth,-33.918,25.5701,12.830000000000041,80,20,6.69,ZA,1696121380
130,aurad,18.25,77.4333,21.930000000000007,95,85,3.71,IN,1696121381
131,lebu,-37.6167,-73.65,9.840000000000032,92,100,3.84,CL,1696121381
132,nabire,-3.3667,135.4833,25.129999999999995,90,100,0.91,ID,1696121381
133,qaqortoq,60.7167,-46.0333,2.07000000000005,85,65,0.74,GL,1696121382
134,berdigestyakh,62.0989,126.6992,6.220000000000027,57,78,3.2,RU,1696121382
135,nemuro,43.3236,145.575,16.610000000000014,94,100,6.43,JP,1696121382
136,susuman,62.7833,148.1667,-0.22999999999996135,62,20,1.28,RU,1696121383
137,severnoye,56.3491,78.3619,-1.8199999999999932,88,16,1.13,RU,1696121383
138,corralillo,22.9819,-80.5856,26.74000000000001,86,100,3.91,CU,1696121384
139,lodja,-3.4833,23.4333,21.02000000000004,94,13,1.17,CD,1696121384
140,port augusta,-32.5,137.7667,20.27000000000004,51,0,7.76,AU,1696121384
141,volda,62.1476,6.0741,11.960000000000036,87,100,0.51,NO,1696121385
142,port saint john's,-31.6229,29.5448,16.920000000000016,57,100,7.84,ZA,1696121385
143,coquimbo,-29.9533,-71.3436,12.850000000000023,87,0,3.09,CL,1696121386
144,yingkou,40.6648,122.2283,17.879999999999995,35,0,1.97,CN,1696121386
145,labrador city,52.9463,-66.9114,15.950000000000045,59,75,3.6,CA,1696121386
146,ancud,-41.8697,-73.8203,7.7000000000000455,80,100,2.93,CL,1696121386
147,quellon,-43.1167,-73.6167,6.890000000000043,86,100,0.79,CL,1696121387
148,la foa,-21.7108,165.8276,23.74000000000001,49,1,2.85,NC,1696121387
149,taoudenni,22.6783,-3.9836,30.55000000000001,21,94,5.08,ML,1696121387
150,hermanus,-34.4187,19.2345,12.080000000000041,73,3,2.68,ZA,1696121388
151,xilin hot,43.9667,116.0333,10.870000000000005,36,0,3.17,CN,1696121388
152,brookings,44.3114,-96.7984,23.0,82,0,7.2,US,1696121388
153,balkanabat,39.5108,54.3671,19.980000000000018,25,7,2.06,TM,1696121389
154,saudarkrokur,65.7461,-19.6394,5.78000000000003,70,100,1.36,IS,1696121389
155,kiunga,-6.1219,141.2906,24.100000000000023,98,100,0.82,PG,1696121389
156,healesville,-37.65,145.5167,20.29000000000002,69,78,1.79,AU,1696121090
157,iskateley,67.6803,53.1512,10.460000000000036,97,100,4.72,RU,1696121390
158,longyearbyen,78.2186,15.6401,-3.089999999999975,59,40,8.75,SJ,1696121390
159,praia da vitoria,38.7333,-27.0667,20.140000000000043,83,20,4.18,PT,1696121391
160,pathein,16.7833,94.7333,25.060000000000002,95,100,2.01,MM,1696121391
161,ginir,7.1333,40.7,14.32000000000005,74,29,1.28,ET,1696121391
162,siilinjarvi,63.0833,27.6667,11.270000000000039,93,100,4.02,FI,1696121391
163,kununurra,-15.7667,128.7333,31.99000000000001,51,12,4.12,AU,1696121392
164,warrenton,-28.114,24.8475,12.879999999999995,54,0,3.92,ZA,1696121392
165,la ronge,55.1001,-105.2842,9.140000000000043,61,75,2.06,CA,1696121392
166,utrik,11.2278,169.8474,27.07000000000005,84,100,5.8,MH,1696121393
167,chibougamau,49.9168,-74.3659,15.580000000000041,80,100,2.98,CA,1696121393
168,pingliang,35.5392,106.6861,12.230000000000018,66,100,2.22,CN,1696121393
169,merizo village,13.2658,144.6691,30.32000000000005,88,70,3.49,GU,1696121394
170,tshabong,-26.05,22.45,16.55000000000001,14,0,4.42,BW,1696121394
171,kadnikov,59.5022,40.338,14.060000000000002,86,100,4.26,RU,1696121395
172,novokuznetsk,53.7557,87.1099,2.330000000000041,93,100,3.45,RU,1696121395
173,cooper's town,26.8667,-77.5167,28.610000000000014,75,89,5.07,BS,1696121395
174,hamilton,39.1834,-84.5333,22.100000000000023,79,0,0.0,US,1696121186
175,sitka,57.0531,-135.33,10.939999999999998,76,100,3.6,US,1696121396
176,puerto baquerizo moreno,-0.9,-89.6,22.840000000000032,83,100,4.2,EC,1696121396
177,tazovsky,67.4667,78.7,-1.1499999999999773,81,100,4.96,RU,1696121397
178,rabo de peixe,37.8,-25.5833,19.99000000000001,99,75,5.14,PT,1696121397
179,selkirk,50.1436,-96.8845,21.160000000000025,58,28,3.19,CA,1696121397
180,hajin,34.6927,40.827,23.80000000000001,59,83,3.87,SY,1696121397
181,suonenjoki,62.6167,27.1333,11.220000000000027,92,97,4.38,FI,1696121398
182,margate,51.3813,1.3862,16.840000000000032,82,24,1.34,GB,1696121331
183,prince rupert,54.3161,-130.3201,11.050000000000011,75,40,1.54,CA,1696121198
184,same,-4.0667,37.7333,19.74000000000001,85,71,1.17,TZ,1696121399
185,eleskirt,39.8033,42.6736,11.890000000000043,68,100,0.29,TR,1696121399
186,tolanaro,-25.0319,46.9987,21.04000000000002,88,0,3.09,MG,1696121399
187,ewo,-0.8725,14.8206,23.32000000000005,91,100,1.91,CG,1696121400
188,aginskoye,51.1,114.53,11.200000000000045,49,82,3.32,RU,1696121400
189,al fuwayliq,26.4432,43.2534,24.05000000000001,22,1,2.62,SA,1696121401
190,catia la mar,10.6038,-67.0303,29.720000000000027,82,40,1.54,VE,1696121244
191,tura,25.5198,90.2201,23.55000000000001,96,81,1.42,IN,1696121401
192,katsuren-haebaru,26.3369,127.8719,30.430000000000007,79,20,4.63,JP,1696121401
193,fort st. john,56.2499,-120.8529,11.939999999999998,66,75,3.6,CA,1696121105
194,fale old settlement,-9.3852,-171.2468,28.460000000000036,71,95,1.34,TK,1696121402
195,havana,23.133,-82.383,26.24000000000001,100,75,1.54,CU,1696121403
196,tshikapa,-6.4167,20.8,21.680000000000007,95,12,0.87,CD,1696121403
197,nuku'alofa,-21.1333,-175.2,26.189999999999998,47,20,4.12,TO,1696121403
198,chateaudun,48.0833,1.3333,13.300000000000011,76,37,1.63,FR,1696121404
199,belyy yar,53.6039,91.3903,4.939999999999998,87,75,5.0,RU,1696121404
200,tsiombe,-25.3,45.4833,19.960000000000036,76,0,1.64,MG,1696121405
201,el granada,37.5027,-122.4694,19.82000000000005,78,20,4.12,US,1696121405
202,manay,7.215,126.5397,30.260000000000048,66,100,5.02,PH,1696121406
203,ishigaki,24.3448,124.1572,30.07000000000005,84,40,6.69,JP,1696121406
204,evergem,51.1455,3.7118,15.54000000000002,79,28,3.41,BE,1696121407
205,talnakh,69.4865,88.3972,-12.25,92,26,0.93,RU,1696121407
206,zhangjiakou,40.81,114.8794,13.360000000000014,32,7,0.15,CN,1696121407
207,uturoa,-16.7333,-151.4333,26.07000000000005,80,63,9.27,PF,1696121408
208,opuwo,-18.0607,13.84,20.0,27,0,1.89,NA,1696121408
209,vadso,70.0744,29.7487,7.490000000000009,93,100,1.03,NO,1696121408
210,khandyga,62.6667,135.6,4.580000000000041,40,21,0.46,RU,1696121409
211,enewetak,11.3474,162.3373,29.04000000000002,76,87,4.87,MH,1696121409
212,hithadhoo,-0.6,73.0833,27.850000000000023,75,100,7.08,MV,1696121409
213,angaur state,6.906,134.13,28.439999999999998,80,25,6.05,PW,1696121409
214,xining,36.6167,101.7667,12.050000000000011,84,100,0.32,CN,1696121410
215,turpan,42.9333,89.1667,21.53000000000003,32,36,1.82,CN,1696121410
216,seguela,7.9611,-6.6731,22.689999999999998,94,100,1.31,CI,1696121410
217,kayangel,8.0823,134.7173,28.32000000000005,80,100,5.91,PW,1696121411
218,maindargi,17.4667,76.3,23.79000000000002,90,100,2.58,IN,1696121411
219,waverly,42.7392,-84.6208,18.950000000000045,87,6,3.06,US,1696121378
220,leamington,42.0549,-82.6062,19.480000000000018,73,7,0.98,CA,1696121412
221,rock springs,41.5875,-109.2029,21.689999999999998,23,0,8.23,US,1696121275
222,portland,45.5234,-122.6762,20.33000000000004,51,20,7.2,US,1696121252
223,nago,26.5881,127.9761,30.470000000000027,76,90,4.77,JP,1696121413
224,tromso,69.6496,18.957,9.010000000000048,93,100,2.57,NO,1696121243
225,hasaki,35.7333,140.8333,28.220000000000027,73,91,8.5,JP,1696121414
226,bouarfa,32.53,-1.95,20.33000000000004,25,0,2.4,MA,1696121414
227,cold springs,39.6802,-119.9766,12.710000000000036,60,75,6.69,US,1696121414
228,port lincoln,-34.7333,135.8667,16.80000000000001,57,0,3.22,AU,1696121415
229,tamanrasset,22.785,5.5228,24.950000000000045,27,20,4.63,DZ,1696121415
230,irymple,-34.25,142.1667,21.720000000000027,49,0,0.45,AU,1696121416
231,saint-philippe,-21.3585,55.7679,20.77000000000004,78,4,5.15,RE,1696121416
232,basco,20.4487,121.9702,28.900000000000034,81,100,7.85,PH,1696121416
233,kuala belait,4.5833,114.1833,25.090000000000032,89,100,4.32,BN,1696121416
234,serdar,38.9764,56.2757,15.910000000000025,28,23,2.75,TM,1696121417
235,puerto aysen,-45.4,-72.7,4.580000000000041,98,91,2.17,CL,1696121297
236,ad-damazin,11.7891,34.3592,24.170000000000016,84,10,3.3,SD,1696121417
237,crescent city,41.756,-124.2018,20.58000000000004,82,0,9.77,US,1696121137
238,kashgar,39.4547,75.9797,12.560000000000002,50,0,2.0,CN,1696121418
239,mugia,43.1041,-9.2179,17.730000000000018,81,39,2.6,ES,1696121418
240,pahrump,36.2083,-115.9839,20.03000000000003,44,99,5.36,US,1696121419
241,freetown,8.484,-13.2299,26.650000000000034,87,94,2.96,SL,1696121419
242,grand falls-windsor,48.9332,-55.6649,11.390000000000043,88,0,2.08,CA,1696121419
243,ciutadella,40.0011,3.8414,21.450000000000045,75,0,3.61,ES,1696121419
244,kelso,46.1468,-122.9084,18.920000000000016,57,0,4.12,US,1696121420
245,prenzlau,53.3167,13.8667,13.710000000000036,75,100,3.32,DE,1696121420
246,kaoma,-14.7833,24.8,24.230000000000018,40,93,1.59,ZM,1696121420
247,walvis bay,-22.9575,14.5053,12.270000000000039,93,0,3.09,NA,1696121421
248,kutiyana,21.6233,69.9817,25.060000000000002,78,63,3.36,IN,1696121421
249,aswan,24.0934,32.907,32.610000000000014,15,0,4.12,EG,1696121421
250,lazaro cardenas,17.9583,-102.2,28.400000000000034,81,4,1.95,MX,1696121422
251,st. john's,47.5649,-52.7093,10.660000000000025,95,20,1.79,CA,1696121422
252,nasiriyah,31.0521,46.261,28.660000000000025,24,0,3.62,IQ,1696121423
253,bojnurd,37.4747,57.329,8.970000000000027,46,0,1.03,IR,1696121424
254,piton saint-leu,-21.2196,55.3151,20.04000000000002,64,0,3.09,RE,1696121424
255,aqsay,51.1678,52.995,10.03000000000003,85,12,3.01,KZ,1696121424
256,polyarnyy,69.1989,33.4478,7.560000000000002,94,86,3.23,RU,1696121425
257,viedma,-40.8135,-62.9967,6.340000000000032,76,11,4.89,AR,1696121425
258,nyaunglebin,17.95,96.7333,24.03000000000003,97,100,2.39,MM,1696121426
259,lihue,21.9789,-159.3672,30.58000000000004,75,100,6.69,US,1696121187
260,chadron,42.8294,-102.9999,26.82000000000005,46,0,1.54,US,1696121426
261,tralee,52.2704,-9.7026,15.420000000000016,94,100,3.74,IE,1696121427
262,luanda,-8.8368,13.2343,23.0,83,0,1.03,AO,1696121427
263,traiguen,-38.25,-72.6833,9.590000000000032,91,96,0.98,CL,1696121427
264,chernyshevskiy,63.0128,112.4714,4.660000000000025,88,100,2.62,RU,1696121428
265,palmer,42.1584,-72.3287,15.080000000000041,85,100,0.0,US,1696121169
266,abilene,32.4487,-99.7331,31.120000000000005,36,0,7.2,US,1696121428
267,nueva palmira,-33.8833,-58.4167,8.360000000000014,59,0,1.91,UY,1696121429
268,greymouth,-42.4667,171.2,9.82000000000005,91,100,2.51,NZ,1696121258
269,graaff-reinet,-32.2522,24.5308,8.840000000000032,89,5,1.82,ZA,1696121429
270,sake,-1.5736,29.045,17.07000000000005,87,11,0.4,CD,1696121430
271,raduzhny,62.0961,77.475,-0.23999999999995225,78,100,3.41,RU,1696121430
272,oriximina,-1.7656,-55.8661,28.010000000000048,46,61,0.74,BR,1696121147
273,stjordalshalsen,63.4681,10.9262,10.470000000000027,93,75,3.09,NO,1696121431
274,klaksvik,62.2266,-6.589,8.510000000000048,81,35,6.91,FO,1696121431
275,byron bay,-28.65,153.6167,24.460000000000036,51,0,7.47,AU,1696121153
276,kudymkar,59.0173,54.656,8.82000000000005,84,100,4.05,RU,1696121432
277,minas de marcona,-15.2119,-75.1103,14.080000000000041,87,92,4.25,PE,1696121432
278,dubbo,-32.25,148.6167,30.07000000000005,25,1,12.35,AU,1696121250
279,alenquer,-1.9417,-54.7383,28.420000000000016,37,43,1.94,BR,1696121432
280,mapimi,25.8167,-103.85,25.629999999999995,27,4,2.45,MX,1696121433
281,porto velho,-8.7619,-63.9039,28.03000000000003,83,75,0.51,BR,1696121433
282,kachug,53.9606,105.8817,7.32000000000005,80,26,1.1,RU,1696121433
283,mezhova,48.2532,36.7347,15.29000000000002,51,8,2.08,UA,1696121434
284,kalmunai,7.4167,81.8167,25.450000000000045,83,54,6.28,LK,1696121434
285,xuanzhou,30.9525,118.7553,21.840000000000032,77,100,4.64,CN,1696121434
286,timbuktu,16.7735,-3.0074,34.77000000000004,22,92,1.34,ML,1696121435
287,stepnoye,51.4,46.8667,11.360000000000014,61,88,1.66,RU,1696121435
288,kerikeri,-35.2268,173.9474,17.100000000000023,45,1,4.17,NZ,1696121435
289,arraial do cabo,-22.9661,-42.0278,21.08000000000004,83,18,10.55,BR,1696121228
290,port douglas,-16.4833,145.4667,24.150000000000034,66,46,4.85,AU,1696121436
291,bubaque,11.2833,-15.8333,27.930000000000007,82,76,5.73,GW,1696121436
292,kandyagash,49.4744,57.4233,11.640000000000043,78,88,3.54,KZ,1696121436
293,mableton,33.8157,-84.5619,24.260000000000048,64,0,0.0,US,1696121437
294,bria,6.5423,21.9863,20.860000000000014,98,43,1.4,CF,1696121437
295,las palmas,28.4204,-14.0131,22.439999999999998,88,100,5.14,ES,1696121438
296,harper,4.375,-7.7169,25.180000000000007,91,100,3.87,LR,1696121438
297,inarajan village,13.2736,144.7484,30.55000000000001,88,89,3.93,GU,1696121438
298,iquique,-20.2208,-70.1431,18.02000000000004,76,75,0.55,CL,1696121438
299,kapuskasing,49.4169,-82.4331,15.0,100,100,1.03,CA,1696121439
300,lacy-lakeview,31.6293,-97.1028,32.18000000000001,36,0,3.6,US,1696121439
301,chateaubriant,47.7167,-1.3833,13.840000000000032,79,0,2.72,FR,1696121439
302,nagqu,31.5,92.0,4.490000000000009,69,54,1.5,CN,1696121440
303,ola,59.5833,151.2833,6.75,79,100,1.19,RU,1696121440
304,misratah,32.3754,15.0925,23.710000000000036,68,4,4.02,LY,1696121440
305,gizo,-8.103,156.8419,27.650000000000034,81,62,5.74,SB,1696121441
306,port alfred,-33.5906,26.891,12.32000000000005,87,32,2.68,ZA,1696121441
307,auki,-8.7676,160.7034,28.760000000000048,69,100,2.25,SB,1696121441
308,bathsheba,13.2167,-59.5167,29.340000000000032,84,40,5.66,BB,1696121442
309,koungheul,13.9833,-14.8,26.150000000000034,84,63,3.08,SN,1696121442
310,narasannapeta,18.4167,84.05,26.74000000000001,86,100,2.98,IN,1696121442
311,porbandar,21.6422,69.6093,26.140000000000043,82,25,4.12,IN,1696121443
312,kailua-kona,19.6406,-155.9956,30.28000000000003,75,40,5.14,US,1696121443
313,le port,-20.9373,55.2919,21.980000000000018,79,26,3.34,RE,1696121443
314,caleta de carquin,-11.0925,-77.6267,19.02000000000004,86,89,3.95,PE,1696121444
315,lompoc,34.6391,-120.4579,19.450000000000045,74,40,5.14,US,1696121444
316,ketchikan,55.3422,-131.6461,12.260000000000048,58,100,3.09,US,1696121444
317,zahedan,29.4963,60.8629,10.950000000000045,25,0,3.09,IR,1696121445
318,mersrags,57.3354,23.1246,12.82000000000005,85,1,6.13,LV,1696121445
319,homer,59.6425,-151.5483,12.939999999999998,54,100,5.14,US,1696121445
320,broome,42.2506,-75.833,17.52000000000004,90,0,0.45,US,1696121445
321,huarmey,-10.0681,-78.1522,19.430000000000007,86,100,3.28,PE,1696121446
322,mooloolaba,-26.6833,153.1167,25.720000000000027,57,0,2.24,AU,1696121446
323,urangan,-25.3,152.9,22.660000000000025,59,11,3.68,AU,1696121446
324,camayenne,9.535,-13.6878,25.05000000000001,94,40,0.0,GN,1696121447
325,banda aceh,5.5577,95.3222,27.510000000000048,76,17,1.66,ID,1696121447
326,rongelap,11.1635,166.8941,27.230000000000018,82,100,5.66,MH,1696121448
327,haiku-pauwela,20.9219,-156.3051,31.010000000000048,51,20,11.32,US,1696121448
328,uray,60.1247,64.7758,2.5400000000000205,92,100,3.92,RU,1696121448
329,nogliki,51.8333,143.1667,12.0,80,100,3.16,RU,1696121449
330,kratie,12.4881,106.0188,26.620000000000005,86,69,1.31,KH,1696121449
331,zaragoza,41.6561,-0.8773,22.79000000000002,34,0,1.34,ES,1696121281
332,afaahiti,-17.75,-149.2833,28.930000000000007,85,53,8.54,PF,1696121450
333,tual,-5.6667,132.75,26.010000000000048,85,98,5.95,ID,1696121450
334,progreso,21.2833,-89.6667,27.28000000000003,82,97,3.46,MX,1696121450
335,rancagua,-34.1708,-70.7444,17.400000000000034,54,0,1.22,CL,1696121450
336,antofagasta,-23.65,-70.4,15.600000000000023,78,32,2.75,CL,1696121164
337,mount gambier,-37.8333,140.7667,15.32000000000005,55,7,6.15,AU,1696121451
338,hagere maryam,5.6333,38.2333,15.54000000000002,92,100,0.97,ET,1696121451
339,bryan,30.6744,-96.37,30.82000000000005,42,0,2.06,US,1696121452
340,cambria,35.5641,-121.0808,20.129999999999995,86,1,3.13,US,1696121452
341,dalnegorsk,44.5604,135.5701,12.810000000000002,70,74,3.69,RU,1696121452
342,vilyuysk,63.7553,121.6247,6.310000000000002,91,100,2.85,RU,1696121453
343,campo gallo,-26.5833,-62.85,18.480000000000018,45,0,2.9,AR,1696121453
344,choibalsan,48.0667,114.5,11.230000000000018,39,73,3.55,MN,1696121453
345,machico,32.7,-16.7667,23.890000000000043,77,20,1.03,PT,1696121453
346,kruisfontein,-34.0033,24.7314,11.600000000000023,84,0,5.44,ZA,1696121454
347,ceeldheer,3.8488,47.1806,25.360000000000014,87,26,6.87,SO,1696121454
348,erdenet,49.0333,104.0833,5.890000000000043,58,13,1.47,MN,1696121455
349,tibanbang,6.6315,126.1055,28.52000000000004,72,100,2.62,PH,1696121455
350,mumbwa,-14.9783,27.0619,22.350000000000023,44,14,1.94,ZM,1696121456
351,vega de alatorre,20.0333,-96.6333,27.74000000000001,75,7,1.17,MX,1696121456
352,shimoda,34.6667,138.95,28.200000000000045,77,17,6.88,JP,1696121456
353,visnagar,23.7,72.55,24.29000000000002,57,18,3.12,IN,1696121457
354,constantia,44.1833,28.65,18.379999999999995,55,24,6.41,RO,1696121457
355,kilindoni,-7.9139,39.6668,24.870000000000005,77,2,5.92,TZ,1696121457
356,manaure,11.7751,-72.4445,29.439999999999998,77,100,6.88,CO,1696121287
357,sultanah,24.4926,39.5857,35.25,8,40,6.69,SA,1696121458
358,pont rouge,48.8833,-72.0825,17.160000000000025,81,4,0.95,CA,1696121458
359,crane,31.3974,-102.3501,27.74000000000001,38,25,6.15,US,1696121458
360,asbe teferi,9.0833,40.8667,16.83000000000004,71,2,1.48,ET,1696121459
361,inirida,3.8653,-67.9239,24.390000000000043,97,100,0.34,CO,1696121459
362,kavaratti,10.5669,72.642,28.08000000000004,78,100,9.23,IN,1696121460
363,bandar-e lengeh,26.5579,54.8807,30.060000000000002,51,0,3.09,IR,1696121460
364,alzamay,55.5562,98.6644,4.3700000000000045,93,100,5.44,RU,1696121460
365,kone,-21.0595,164.8658,24.860000000000014,48,16,3.86,NC,1696121461
366,dean funes,-30.4204,-64.3498,12.680000000000007,43,0,3.11,AR,1696121461
367,pisco,-13.7,-76.2167,19.03000000000003,82,0,6.17,PE,1696121461
368,saint-pierre,-21.3393,55.4781,20.870000000000005,64,0,3.09,RE,1696121461
369,antalaha,-14.9003,50.2788,20.720000000000027,83,60,2.45,MG,1696121462
370,hede,33.7681,120.2517,21.600000000000023,57,0,5.1,CN,1696121462
371,udachny,66.4167,112.4,0.25,100,100,2.99,RU,1696121462
372,dumai,1.6833,101.45,25.180000000000007,86,100,0.82,ID,1696121463
373,port hedland,-20.3167,118.5667,28.03000000000003,65,0,2.57,AU,1696121463
374,howard springs,-12.497,131.047,31.010000000000048,46,55,3.19,AU,1696121463
375,itoman,26.1247,127.6694,30.430000000000007,79,75,6.69,JP,1696121464
376,mejit,10.2753,170.8646,26.78000000000003,83,100,7.03,MH,1696121464
377,ardakan,32.31,54.0175,19.510000000000048,22,1,2.03,IR,1696121465
378,hobyo,5.3505,48.5268,25.680000000000007,86,61,7.59,SO,1696121465
379,vorkuta,67.5,64.0,5.100000000000023,98,100,5.89,RU,1696121466
380,kamennogorsk,60.9545,29.1339,9.050000000000011,92,64,3.57,RU,1696121466
381,mahina,-17.5065,-149.489,29.870000000000005,62,20,5.14,PF,1696121466
382,cabedelo,-6.9811,-34.8339,24.370000000000005,78,64,5.77,BR,1696121467
383,camana,-16.6228,-72.7111,18.220000000000027,87,65,2.95,PE,1696121467
384,phongsali,21.6833,102.1058,17.090000000000032,99,100,0.23,LA,1696121467
385,brady,31.1352,-99.3351,29.74000000000001,42,0,3.09,US,1696121392
386,qamdo,31.1667,97.2333,6.939999999999998,58,1,2.13,CN,1696121468
387,corner brook,48.9667,-57.9484,8.090000000000032,94,34,1.5,CA,1696121468
388,katsuura,35.1333,140.3,28.010000000000048,78,39,9.36,JP,1696121469
389,rudnya,54.947,31.0934,12.060000000000002,88,100,5.25,RU,1696121469
390,arroyo de la luz,39.4851,-6.584,22.950000000000045,42,59,1.33,ES,1696121469
391,solleftea,63.1667,17.2667,8.920000000000016,72,100,5.44,SE,1696121470
392,kuta,-8.7233,115.1723,26.970000000000027,83,40,2.24,ID,1696121470
393,troitsko-pechorsk,62.7084,56.1964,8.960000000000036,90,100,4.81,RU,1696121470
394,ravenna,44.4167,11.9833,19.77000000000004,53,11,1.36,IT,1696121471
395,turtas,58.9417,69.1325,0.36000000000001364,78,14,2.28,RU,1696121471
396,kutum,14.2,24.6667,24.07000000000005,62,100,5.73,SD,1696121471
397,komotini,41.1228,25.3964,16.700000000000045,60,0,2.76,GR,1696121472
398,london,51.5085,-0.1257,16.939999999999998,87,100,2.57,GB,1696121039
399,uran,18.8769,72.9397,26.980000000000018,86,100,3.22,IN,1696121472
400,esmeralda,21.8525,-78.1169,26.200000000000045,87,1,2.48,CU,1696121473
401,sohag,26.557,31.6948,29.160000000000025,27,100,2.82,EG,1696121473
402,nar'yan-mar,67.6713,53.087,10.520000000000039,97,100,4.7,RU,1696121473
403,bethanie,-26.4833,17.15,13.75,33,0,0.49,NA,1696121474
404,velikiye luki,56.34,30.5452,10.150000000000034,96,8,3.57,RU,1696121474
405,gorontalo,0.5412,123.0595,31.100000000000023,53,86,2.93,ID,1696121474
406,porto novo,6.4965,2.6036,26.900000000000034,86,5,2.02,BJ,1696121475
407,berezovyy,51.6667,135.7,7.260000000000048,90,100,2.9,RU,1696121475
408,primero de enero,21.9469,-78.4283,26.680000000000007,83,6,2.93,CU,1696121475
409,happy valley-goose bay,53.3168,-60.3315,14.170000000000016,54,75,1.54,CA,1696121476
410,olinda,-8.0089,-34.8553,25.850000000000023,73,40,4.12,BR,1696121476
411,labuan bajo,-8.4964,119.8877,28.28000000000003,55,9,1.77,ID,1696121476
412,kaa-khem,51.6833,94.7333,8.950000000000045,55,96,0.88,RU,1696121477
413,paragominas,-2.9667,-47.4833,29.850000000000023,44,92,3.13,BR,1696121477
414,floro,61.5996,5.0328,9.04000000000002,93,100,2.06,NO,1696121477
415,weno,7.4515,151.8468,29.970000000000027,84,100,3.6,FM,1696121478
416,waddan,29.1614,16.139,22.04000000000002,62,0,3.12,LY,1696121478
417,baoqing,46.3317,132.2111,12.620000000000005,73,80,3.73,CN,1696121478
418,aleksandrovskoye,44.7142,43.0008,11.78000000000003,80,3,3.03,RU,1696121479
419,hilo,19.7297,-155.09,28.850000000000023,71,0,3.09,US,1696121479
420,nishinoomote,30.7333,131.0,28.310000000000002,83,20,4.63,JP,1696121479
421,ingeniero luis a. huergo,-39.0833,-67.2333,16.460000000000036,30,87,5.9,AR,1696121479
422,boguchany,58.3814,97.4531,0.26000000000004775,84,12,4.48,RU,1696121480
423,balcarce,-37.8462,-58.2552,7.560000000000002,95,0,2.98,AR,1696121480
424,soto la marina,23.7667,-98.2167,27.29000000000002,73,99,3.21,MX,1696121480
425,gadzhiyevo,69.2551,33.3362,7.5,94,85,3.22,RU,1696121481
426,berea,41.3662,-81.8543,18.860000000000014,90,0,2.57,US,1696121481
427,bemidji,47.4736,-94.8803,19.75,95,100,3.6,US,1696121482
428,kuqa,41.7278,82.9364,16.340000000000032,45,1,1.43,CN,1696121482
429,georgiyevka,43.0369,74.7114,10.020000000000039,76,20,4.0,KZ,1696121482
430,cadale,2.7603,46.3222,25.75,86,1,6.53,SO,1696121482
431,al kharijah,25.4514,30.5464,28.939999999999998,31,13,5.3,EG,1696121483
432,gaiman,-43.2897,-65.4929,13.720000000000027,37,100,10.85,AR,1696121483
433,arica,-18.475,-70.3042,19.75,77,100,4.63,CL,1696121465
434,budleigh salterton,50.6298,-3.3218,18.04000000000002,95,98,6.55,GB,1696121484
435,villa gesell,-37.2639,-56.973,10.03000000000003,85,21,5.61,AR,1696121248
436,santana,-0.0583,-51.1817,30.100000000000023,70,0,6.69,BR,1696121484
437,sandpoint,48.2766,-116.5533,11.629999999999995,75,100,4.12,US,1696121484
438,kovylkino,54.0388,43.9139,12.879999999999995,79,57,3.57,RU,1696121485
439,ulsteinvik,62.3432,5.8487,12.730000000000018,92,100,4.92,NO,1696121485
440,acarau,-2.8856,-40.12,26.189999999999998,81,16,8.0,BR,1696121486
441,okhotsk,59.3833,143.3,7.4500000000000455,72,100,2.55,RU,1696121486
442,ilinge,-31.9768,27.0427,7.220000000000027,67,32,1.93,ZA,1696121486
443,loreto,22.2667,-101.9667,23.99000000000001,27,100,6.85,MX,1696121486
444,kishanpur,25.65,81.0167,25.189999999999998,84,10,2.8,IN,1696121487
445,smithfield,41.922,-71.5495,14.490000000000009,93,100,4.12,US,1696121487
446,nouadhibou,20.931,-17.0347,24.99000000000001,65,16,5.66,MR,1696121487
447,sodra sandby,56.5667,16.6167,13.270000000000039,84,100,6.71,SE,1696121488
448,yaren,-0.5472,166.916,29.189999999999998,73,28,4.7,NR,1696121488
449,arkhipo-osipovka,44.37,38.52,18.680000000000007,77,63,2.24,RU,1696121488
450,stephenville,32.2207,-98.2023,30.140000000000043,46,0,3.09,US,1696121489
451,gisborne,-38.6533,178.0042,14.810000000000002,43,11,1.83,NZ,1696121489
452,berriane,32.8265,3.7669,23.450000000000045,37,0,2.08,DZ,1696121489
453,cidreira,-30.1811,-50.2056,15.810000000000002,83,100,4.85,BR,1696121490
454,richards bay,-28.783,32.0377,18.950000000000045,83,100,8.26,ZA,1696121490
455,petukhovo,55.0692,67.9019,8.150000000000034,90,100,2.03,RU,1696121490
456,jinka,5.65,36.65,17.879999999999995,89,96,1.9,ET,1696121490
457,kulhudhuffushi,6.6221,73.07,27.30000000000001,78,100,8.36,MV,1696121491
458,odoyev,53.9393,36.6864,11.160000000000025,66,0,3.85,RU,1696121491
459,musoma,-1.5,33.8,22.920000000000016,66,21,2.04,TZ,1696121491
460,escanaba,45.7453,-87.0646,18.620000000000005,100,100,3.09,US,1696121492
461,mariental,-24.6333,17.9667,17.400000000000034,16,0,3.97,NA,1696121493
462,lusambo,-4.9667,23.45,21.120000000000005,95,33,0.62,CD,1696121493
463,at taj,24.2049,23.2857,27.05000000000001,30,100,6.39,LY,1696121494
464,mikulov,48.8056,16.6378,11.82000000000005,100,23,1.93,CZ,1696121494
465,paka,4.6374,103.4368,24.99000000000001,94,20,0.0,MY,1696121495
466,port blair,11.6667,92.75,26.02000000000004,89,75,1.54,IN,1696121495
467,mersing,2.4312,103.8405,27.100000000000023,75,86,1.32,MY,1696121495
468,palikir - national government center,6.9248,158.1611,29.410000000000025,79,100,2.06,FM,1696121496
469,krasnozerskoye,53.9828,79.2374,1.57000000000005,89,3,3.18,RU,1696121496
470,hammerfest,70.6634,23.6821,7.25,93,75,4.12,NO,1696121496
471,conde,-7.2597,-34.9075,23.700000000000045,88,20,2.06,BR,1696121497
472,zaozersk,69.4005,32.4476,7.32000000000005,94,100,1.86,RU,1696121497
473,hirara,24.8,125.2833,29.920000000000016,84,40,7.72,JP,1696121497
474,murzuq,25.9155,13.9184,26.410000000000025,38,100,5.54,LY,1696121498
475,angra dos reis,-23.0067,-44.3181,21.230000000000018,91,47,0.46,BR,1696121288
476,ayaviri,-14.8864,-70.5889,9.78000000000003,73,96,1.04,PE,1696121498
477,nhamunda,-2.1861,-56.7131,28.760000000000048,35,10,1.15,BR,1696121498
478,bida,9.0833,6.0167,24.28000000000003,91,100,0.32,NG,1696121499
479,kencong,-8.2833,113.3667,27.210000000000036,64,8,1.22,ID,1696121499
480,bushehr,28.9684,50.8385,28.05000000000001,61,0,2.06,IR,1696121499
481,chegdomyn,51.1167,133.0167,9.840000000000032,68,100,1.29,RU,1696121500
482,bandon,51.7469,-8.7425,15.770000000000039,96,100,5.8,IE,1696121500
483,severo-yeniseyskiy,60.3725,93.0408,-4.8700000000000045,90,100,4.8,RU,1696121500
484,menongue,-14.6585,17.691,16.220000000000027,89,2,2.18,AO,1696121501
485,smithers,54.7804,-127.1743,13.180000000000007,47,75,2.06,CA,1696121501
486,kyelang,32.5833,77.0333,2.660000000000025,85,13,1.36,IN,1696121501
487,turbat,26.0023,63.044,26.970000000000027,13,0,2.91,PK,1696121502
488,hanzhong,33.0728,107.0303,16.83000000000004,84,100,0.81,CN,1696121502
489,khark,29.2614,50.3306,31.82000000000005,52,0,6.36,IR,1696121502
490,morehead city,34.7229,-76.726,21.03000000000003,87,100,3.6,US,1696121220
491,al hamul,31.3115,31.1477,22.650000000000034,78,69,2.59,EG,1696121503
492,tvoroyri,61.5556,-6.8111,9.410000000000025,85,9,9.54,FO,1696121503
493,northam,51.0333,-4.2167,19.25,94,100,6.55,GB,1696121504
494,rabaul,-4.1967,152.1721,28.5,74,21,2.85,PG,1696121504
495,ouesso,1.6136,16.0517,21.850000000000023,99,95,1.09,CG,1696121504
496,candido de abreu,-24.5669,-51.3333,19.720000000000027,94,100,0.97,BR,1696121505
497,i-n-salah,27.1935,2.4607,29.480000000000018,27,0,10.56,DZ,1696121505
498,kievka,50.2619,71.5514,8.010000000000048,71,78,3.01,KZ,1696121505
499,antsiranana,-12.2787,49.2917,22.470000000000027,83,12,5.9,MG,1696121506
500,veshenskaya,49.6303,41.7334,13.150000000000034,62,5,2.56,RU,1696121506
501,beau vallon,-20.4189,57.6953,22.129999999999995,83,40,4.12,MU,1696121506
502,moranbah,-22.0016,148.0466,26.439999999999998,37,0,5.81,AU,1696121506
503,qarazhal,48.0078,70.7903,12.110000000000014,43,100,2.82,KZ,1696121507
504,antigonish,45.6169,-61.9986,13.79000000000002,95,94,2.38,CA,1696121382
505,taulaga,-11.0553,-171.0883,28.03000000000003,76,27,4.04,AS,1696121507
506,al badari,26.9926,31.4155,26.08000000000004,32,100,3.88,EG,1696121508
507,remontnoye,46.5614,43.6501,15.470000000000027,56,0,3.69,RU,1696121508
508,iaciara,-14.0958,-46.6317,29.25,37,96,2.34,BR,1696121508
509,mermoz boabab,14.7065,-17.4758,28.879999999999995,84,40,2.06,SN,1696121509
510,urzhar,47.093,81.6294,12.100000000000023,62,84,0.8,KZ,1696121509
511,garissa,-0.4536,39.6401,24.08000000000004,81,29,5.89,KE,1696121509
512,carora,10.1755,-70.0827,29.439999999999998,58,100,1.0,VE,1696121509
513,pacasmayo,-7.4006,-79.5714,19.110000000000014,85,37,5.59,PE,1696121510
514,plettenberg bay,-34.0527,23.3716,11.04000000000002,82,7,3.49,ZA,1696121303
515,pacific grove,36.6177,-121.9166,16.420000000000016,87,100,3.6,US,1696121510
516,namtsy,62.7161,129.6658,4.720000000000027,40,70,3.28,RU,1696121511
517,singaraja,-8.112,115.0882,28.49000000000001,57,1,0.5,ID,1696121511
518,quepos,9.4236,-84.1652,27.100000000000023,83,28,0.58,CR,1696121511
519,craig,40.5153,-107.5464,24.79000000000002,17,0,3.6,US,1696121512
520,istaravshan,39.9142,69.0033,11.660000000000025,37,48,1.55,TJ,1696121512
521,kadaura,25.9833,79.85,25.340000000000032,62,5,2.4,IN,1696121513
522,cienfuegos,22.1461,-80.4356,26.08000000000004,89,86,4.12,CU,1696121513
523,nadi,-17.8,177.4167,27.0,47,75,6.69,FJ,1696121513
524,ingeniero jacobacci,-41.3427,-69.5448,11.230000000000018,44,100,3.41,AR,1696121514
525,santa terezinha,-29.9002,-50.0904,15.879999999999995,88,100,4.57,BR,1696121514
526,iskenderun,36.5872,36.1735,21.460000000000036,84,10,2.32,TR,1696121515
527,kapa'a,22.0752,-159.319,30.99000000000001,74,100,6.69,US,1696121515
528,lewistown,40.5992,-77.5714,18.670000000000016,94,75,0.0,US,1696121439
529,korsakov,46.6328,142.7813,14.910000000000025,93,100,6.8,RU,1696121516
530,strezhevoy,60.7333,77.5889,-0.839999999999975,80,100,2.7,RU,1696121516
531,essaouira,31.5125,-9.77,22.720000000000027,43,16,2.57,MA,1696121516
532,pariaman,-0.619,100.12,26.03000000000003,82,89,2.21,ID,1696121517
533,tofol,5.3248,163.0078,31.879999999999995,62,75,3.09,FM,1696121517
534,thunder bay,48.4001,-89.3168,15.990000000000009,88,40,2.06,CA,1696121517
535,es castell,39.8795,4.2854,21.379999999999995,78,0,2.06,ES,1696121517
536,alekseyevka,50.6309,38.6903,14.730000000000018,54,2,1.13,RU,1696121518
537,labytnangi,66.6572,66.4183,2.180000000000007,99,100,3.29,RU,1696121518
538,san andres,12.5847,-81.7006,30.010000000000048,79,20,3.09,CO,1696121518
539,san borja,-14.8167,-66.85,25.860000000000014,63,59,1.07,BO,1696121519
540,el galpon,-25.3807,-64.6526,17.860000000000014,42,40,0.92,AR,1696121519
541,okayama,34.6617,133.935,27.710000000000036,78,75,1.54,JP,1696121406
542,bacalar,18.6667,-88.3833,26.58000000000004,88,16,1.99,MX,1696121520
543,ubari,26.5921,12.7805,25.480000000000018,42,6,4.8,LY,1696121520
544,prado,-17.3411,-39.2208,23.350000000000023,75,99,3.72,BR,1696121520
545,aransas pass,27.9095,-97.15,30.05000000000001,81,40,6.17,US,1696121520
546,pyapon,16.2833,95.6833,25.5,94,100,3.13,MM,1696121521
547,petite riviere,-20.1894,57.4453,21.860000000000014,85,20,3.54,MU,1696121521
548,flin flon,54.7682,-101.865,8.700000000000045,63,100,1.63,CA,1696121521
549,xinyuan,37.3,99.0,6.900000000000034,87,98,1.55,CN,1696121522
550,al hazm,16.1641,44.7769,23.870000000000005,20,0,0.52,YE,1696121522
551,sao vicente,-23.9631,-46.3919,25.150000000000034,26,98,0.39,BR,1696121522
552,soure,-0.7167,-48.5233,27.670000000000016,73,42,5.71,BR,1696121523
553,twon-brass,4.3151,6.2418,26.5,85,4,4.64,NG,1696121523
554,san fernando de apure,7.8878,-67.4724,28.07000000000005,79,100,1.01,VE,1696121523
555,archidona,37.0965,-4.3887,19.680000000000007,62,6,2.09,ES,1696121524
556,none,44.9331,7.5401,20.560000000000002,78,0,8.75,IT,1696120939
557,ibadan,7.3878,3.8964,22.420000000000016,97,54,0.62,NG,1696121524
558,chiredzi,-21.05,31.6667,25.54000000000002,42,0,1.81,ZW,1696121525
559,mingshui,36.7167,117.5,19.210000000000036,38,0,0.55,CN,1696121525
560,capao da canoa,-29.7456,-50.0097,15.930000000000007,89,100,4.43,BR,1696121525
561,burabay,53.0838,70.3138,8.410000000000025,74,74,1.85,KZ,1696121525
562,belen,36.4891,36.2233,17.08000000000004,88,40,2.57,TR,1696121526
563,ramnagar,29.4,79.1167,21.980000000000018,86,4,1.86,IN,1696121526
564,lensk,60.7253,114.9278,7.890000000000043,81,26,2.25,RU,1696121526
565,vila velha,-20.3297,-40.2925,19.970000000000027,95,100,2.06,BR,1696121527
